#Network | Station | Latitude | Longitude | Elevation | Sitename | StartTime | EndTime

#DATACENTER=IRISDMC,https://www.earthscope.org/data/
AF|MBEY|-8.983|33.241001|1331.0|Mbeya, Tanzania|2007-01-30T00:00:00|2599-12-31T23:59:59
AF|MZM|-11.434|34.035|1258.0|Mzuzu, Milawi, Africa|2006-01-01T00:00:00|2599-12-31T23:59:59
YQ|103B|-9.7159|34.111801|-265.0|SIO OBS ID 103B|2015-03-05T00:00:00|2015-10-25T23:59:59
YQ|104|-9.7986|34.156502|-321.0|SIO OBS ID 104|2015-03-05T00:00:00|2015-04-17T23:59:59
YQ|105|-9.8808|34.204899|-331.0|SIO OBS ID 105|2015-03-05T00:00:00|2015-04-17T23:59:59
YQ|106|-9.9636|34.250401|-375.0|SIO OBS ID 106|2015-03-05T00:00:00|2015-04-17T23:59:59
YQ|107|-10.0484|34.2981|-450.0|SIO OBS ID 107|2015-02-28T00:00:00|2015-04-21T23:59:59
YQ|108|-10.1336|34.3451|-466.0|SIO OBS ID 108|2015-02-28T00:00:00|2015-04-21T23:59:59
YQ|109|-10.218|34.3922|-492.0|SIO OBS ID 109|2015-02-28T00:00:00|2015-04-21T23:59:59
YQ|110B|-10.3224|34.396|-485.0|SIO OBS ID 110B|2015-02-28T00:00:00|2015-10-25T23:59:59
YQ|111|-10.4263|34.410301|-458.0|SIO OBS ID 111|2015-02-28T00:00:00|2015-04-21T23:59:59
YQ|112|-10.5291|34.4035|-454.0|SIO OBS ID 112|2015-02-28T00:00:00|2015-04-21T23:59:59
YQ|113|-10.6331|34.406898|-472.0|SIO OBS ID 113|2015-02-28T00:00:00|2015-04-16T23:59:59
YQ|114|-10.7366|34.410099|-514.0|SIO OBS ID 114|2015-02-28T00:00:00|2015-04-16T23:59:59
YQ|115|-10.8407|34.413601|-563.0|SIO OBS ID 115|2015-02-27T00:00:00|2015-04-16T23:59:59
YQ|116|-10.9653|34.418999|-679.0|SIO OBS ID 116|2015-02-27T00:00:00|2015-04-16T23:59:59
YQ|117|-11.0888|34.426899|-683.0|SIO OBS ID 117|2015-02-27T00:00:00|2015-04-16T23:59:59
YQ|118B|-11.214|34.429699|-605.0|SIO OBS ID 118B|2015-02-27T00:00:00|2015-10-25T23:59:59
YQ|119|-11.3357|34.443699|-560.0|SIO OBS ID 119|2015-02-27T00:00:00|2015-04-16T23:59:59
YQ|120|-11.4558|34.436901|-518.0|SIO OBS ID 120|2015-02-27T00:00:00|2015-04-16T23:59:59
YQ|120M|-11.5234|34.443401|-475.0|SIO OBS ID 120M|2015-03-06T00:00:00|2015-04-18T23:59:59
YQ|121|-11.5987|34.441299|-450.0|SIO OBS ID 121|2015-02-27T00:00:00|2015-04-18T23:59:59
YQ|122|-11.6475|34.448299|-458.0|SIO OBS ID 122|2015-03-06T00:00:00|2015-04-18T23:59:59
YQ|201|-10.0985|34.066002|-132.0|SIO OBS ID 201|2015-03-05T00:00:00|2015-04-17T23:59:59
YQ|202|-10.0651|34.111301|-212.0|SIO OBS ID 202|2015-03-05T00:00:00|2015-04-17T23:59:59
YQ|203B|-10.0314|34.1577|-312.0|SIO OBS ID 203B|2015-03-05T00:00:00|2015-10-25T23:59:59
YQ|204|-9.9974|34.203602|-386.0|SIO OBS ID 204|2015-03-05T00:00:00|2015-04-17T23:59:59
YQ|205|-9.9385|34.285599|-400.0|SIO OBS ID 205|2015-03-05T00:00:00|2015-04-17T23:59:59
YQ|206B|-9.9119|34.319901|-402.0|SIO OBS ID 206B|2015-03-05T00:00:00|2015-10-25T23:59:59
YQ|301|-10.8588|34.2593|-500.0|SIO OBS ID 301|2015-02-28T00:00:00|2015-04-20T23:59:59
YQ|302B|-10.8528|34.307999|-512.0|SIO OBS ID 302B|2015-02-28T00:00:00|2015-10-25T23:59:59
YQ|303|-10.8474|34.359299|-584.0|SIO OBS ID 303|2015-02-28T00:00:00|2015-04-20T23:59:59
YQ|305|-10.8291|34.5229|-490.0|SIO OBS ID 305|2015-03-06T00:00:00|2015-04-20T23:59:59
YQ|306|-10.8247|34.579399|-397.0|SIO OBS ID 306|2015-03-06T00:00:00|2015-04-20T23:59:59
YQ|BAKO|-8.8437|34.801601|1651.0|Makambako,Tanzania|2014-07-01T00:00:00|2015-11-04T23:59:59
YQ|BANG|-10.1128|35.6506|960.0|Mbangamawe,Tanzania|2014-07-14T00:00:00|2015-11-04T23:59:59
YQ|BOLE|-10.9796|33.742599|1109.0|Bolero,Malawi|2014-07-14T00:00:00|2015-11-04T23:59:59
YQ|BUMI|-10.1277|34.936501|1333.0|Ibumi,Tanzania|2014-07-10T00:00:00|2015-11-04T23:59:59
YQ|CHEL|-10.5869|33.8097|2194.0|Chelinda,Malawi|2014-07-16T00:00:00|2015-11-04T23:59:59
YQ|CHML|-8.8261|34.028301|1118.0|Chimala,Tanzania|2013-08-07T00:00:00|2015-11-04T23:59:59
YQ|CHUN|-8.5434|33.433701|1527.0|Chunya,Tanzania|2014-07-02T00:00:00|2015-11-04T23:59:59
YQ|CPMW|-9.7057|33.269199|1272.0|Chitipa,Malawi|2014-07-22T00:00:00|2015-11-04T23:59:59
YQ|CRTR|-9.3318|33.751301|916.0|Masoko,Tanzania|2013-08-10T00:00:00|2015-11-04T23:59:59
YQ|ENUK|-11.1799|33.885899|3619.0|Enukweni,Malawi|2014-07-12T00:00:00|2015-11-04T23:59:59
YQ|GAWA|-8.7648|34.386398|1127.0|Igawa,Tanzania|2014-07-01T00:00:00|2015-11-04T23:59:59
YQ|IGOM|-9.0|33.657299|2364.0|Igoma,Tanzania|2013-08-13T00:00:00|2015-11-04T23:59:59
YQ|ILIN|-9.0818|33.332699|1919.0|Ilindi,Tanzania|2013-08-08T00:00:00|2015-11-04T23:59:59
YQ|ILOM|-9.2829|33.342098|2110.0|Ilombo,Tanzania|2013-08-08T00:00:00|2015-11-04T23:59:59
YQ|ISOK|-9.509|33.4944|1443.0|Kyela,Tanzania|2013-08-13T00:00:00|2015-11-04T23:59:59
YQ|ITUM|-9.4005|33.188|1365.0|Tunduma,Tanzania|2014-07-01T00:00:00|2015-11-04T23:59:59
YQ|JILO|-8.7261|33.566299|2002.0|Lwanjilo,Tanzania|2013-08-11T00:00:00|2015-11-04T23:59:59
YQ|KALO|-9.9111|33.644798|1065.0|Kalowe,Malawi|2014-07-22T00:00:00|2015-11-04T23:59:59
YQ|KAPK|-9.7801|33.457401|1357.0|Kapoka,Malawi|2014-07-21T00:00:00|2015-11-04T23:59:59
YQ|KAPO|-9.7851|33.820801|533.0|Kaporo,Malawi|2014-07-20T00:00:00|2015-11-04T23:59:59
YQ|KARM|-9.9541|33.895401|527.0|Karonga Airport MW|2013-06-26T00:00:00|2015-11-04T23:59:59
YQ|KIDE|-9.2745|35.0214|1760.0|Kidegembe,Tanzania|2014-06-30T00:00:00|2015-11-04T23:59:59
YQ|KIFA|-9.5472|35.1026|1742.0|Kifanya,Tanzania|2014-06-30T00:00:00|2015-11-04T23:59:59
YQ|KIMO|-10.6922|36.046299|841.0|Ikongo,Tanzania|2014-07-14T00:00:00|2015-11-04T23:59:59
YQ|KIPE|-9.2936|34.436401|2224.0|Kipengere,Tanzania|2013-08-08T00:00:00|2015-11-04T23:59:59
YQ|KURU|-11.1996|35.457699|751.0|Muhukuru,Tanzania|2014-07-19T00:00:00|2015-11-04T23:59:59
YQ|LIGA|-10.6835|35.254501|976.0|Liganga,Tanzania|2014-07-15T00:00:00|2015-11-04T23:59:59
YQ|LIVA|-10.6138|34.106998|1371.0|Livingstonia,Malawi|2014-07-23T00:00:00|2015-11-04T23:59:59
YQ|LOSI|-8.3872|33.168201|1233.0|Makongolosi,Tanzania|2014-07-02T00:00:00|2015-11-04T23:59:59
YQ|MAKE|-9.2647|34.096802|2304.0|Makete,Tanzania|2013-08-09T00:00:00|2015-11-04T23:59:59
YQ|MAND|-10.4782|34.600498|511.0|Manda,Tanzania|2014-07-05T00:00:00|2015-11-04T23:59:59
YQ|MATA|-8.9593|33.968899|2074.0|Matamba,Tanzania|2013-08-14T00:00:00|2015-11-04T23:59:59
YQ|MBAM|-11.2484|34.791901|560.0|Mbamba_Bay,Tanzania|2014-07-21T00:00:00|2015-11-04T23:59:59
YQ|MBEY|-8.9996|33.250401|1393.0|Mbeya,Tanzania|2013-08-15T00:00:00|2015-11-04T23:59:59
YQ|MBHS|-9.4309|33.9846|560.0|Matema,Tanzania|2013-08-10T00:00:00|2015-11-04T23:59:59
YQ|MFRI|-9.2944|35.312901|1604.0|Mfriga,Tanzania|2014-06-30T00:00:00|2015-11-04T23:59:59
YQ|MKIL|-10.8807|34.681301|490.0|Mkili,Tanzania|2014-07-24T00:00:00|2015-11-04T23:59:59
YQ|MLOW|-10.7827|34.207199|513.0|Mlowe,Malawi|2014-07-23T00:00:00|2015-11-04T23:59:59
YQ|MUDI|-9.8621|34.937302|1397.0|Mudindi,Tanzania|2014-07-11T00:00:00|2015-11-04T23:59:59
YQ|MZUN|-9.1502|33.521301|1399.0|Kiwira,Tanzania|2013-08-14T00:00:00|2015-11-04T23:59:59
YQ|NGEA|-10.6754|35.6744|1200.0|Songea,Tanzania|2014-07-12T00:00:00|2015-11-04T23:59:59
YQ|NGON|-10.9387|33.942799|1060.0|Ngonga,Malawi|2014-07-13T00:00:00|2015-11-04T23:59:59
YQ|NIND|-10.1421|34.579201|1292.0|Nindi,Tanzania|2014-07-06T00:00:00|2015-11-04T23:59:59
YQ|NKAL|-9.1881|33.773602|1551.0|Nkalisi,Tanzania|2013-08-09T00:00:00|2015-11-04T23:59:59
YQ|NTHA|-10.3521|33.637199|1291.0|Nthalire,Malawi|2014-07-23T00:00:00|2015-11-04T23:59:59
YQ|SCH|-10.1754|34.032398|529.0|Mlare,Malawi|2014-07-20T00:00:00|2015-11-04T23:59:59
YQ|THAN|-11.4683|34.1842|683.0|Thanula,Malawi|2014-07-18T00:00:00|2015-11-04T23:59:59
YQ|THAZ|-10.8305|33.5924|1695.0|Thazima,Malawi|2014-07-16T00:00:00|2015-11-04T23:59:59
YQ|TIRI|-10.7626|34.883099|1295.0|Matiri,Tanzania|2014-07-21T00:00:00|2015-11-04T23:59:59
YQ|TOLA|-9.5921|34.584099|2201.0|Matola,Tanzania|2014-06-29T00:00:00|2015-11-04T23:59:59
YQ|UKWA|-9.4539|34.215801|2143.0|Ukwama,Tanzania|2013-08-08T00:00:00|2015-11-04T23:59:59
YQ|UNDA|-9.8536|34.473801|1767.0|Madunda,Tanzania|2014-07-08T00:00:00|2015-11-04T23:59:59
YQ|UWEM|-9.4696|34.7859|2151.0|Njombe,Tanzania|2014-06-30T00:00:00|2015-11-04T23:59:59
YQ|VWZM|-11.1753|33.574402|1134.0|Vwaza MW|2014-06-29T00:00:00|2015-11-04T23:59:59
YQ|WENY|-10.1579|33.5574|1516.0|Wenya,Malawi|2014-07-23T00:00:00|2015-11-04T23:59:59
YQ|WINO|-9.7576|35.300098|1486.0|Wino,Tanzania|2014-07-13T00:00:00|2015-11-04T23:59:59
YQ|ZINI|-10.4659|35.338299|1044.0|Mgazini,Tanzania|2014-07-16T00:00:00|2015-11-04T23:59:59
ZV|KASA|-8.43832|31.147261|784.0|KASANGA|2014-06-23T00:00:00|2015-09-03T00:00:00
ZV|LAEA|-8.57677|32.042221|1568.0|LAELA|2014-06-29T00:00:00|2015-09-04T00:00:00
ZV|SUMA|-7.96386|31.625191|1842.0|SUMBAWANGA|2014-06-28T00:00:00|2015-09-03T00:00:00